{"type": "FeatureCollection", "features": [{"type": "Feature", "properties": {"Name": "Indiana University, Bloomington", "Rev_2015": 88362421, "Rev_2016": 95216762, "Rev_2017": 106139192, "Rev_2018": 122933136, "Rev_2019": 127832628, "Rev_2020": 121181042, "Rev_2021": 78083857, "Rev_2022": 166761471, "Rev_2023": 144706586, "Rev_2024": 173554816}, "geometry": {"type": "Point", "coordinates": [-86.5264, 39.1653]}}, {"type": "Feature", "properties": {"Name": "Michigan State University", "Rev_2015": 108687274, "Rev_2016": 123034495, "Rev_2017": 126021377, "Rev_2018": 145640289, "Rev_2019": 140010865, "Rev_2020": 130636629, "Rev_2021": 89529295, "Rev_2022": 172799513, "Rev_2023": 170654025, "Rev_2024": 163735928}, "geometry": {"type": "Point", "coordinates": [-84.4822, 42.7018]}}, {"type": "Feature", "properties": {"Name": "Pennsylvania State University", "Rev_2015": 125720619, "Rev_2016": 132248076, "Rev_2017": 144017055, "Rev_2018": 165373214, "Rev_2019": 164529326, "Rev_2020": 165077390, "Rev_2021": 106159518, "Rev_2022": 181227448, "Rev_2023": 202200023, "Rev_2024": 220758927}, "geometry": {"type": "Point", "coordinates": [-77.8599, 40.7982]}}, {"type": "Feature", "properties": {"Name": "Purdue University", "Rev_2015": 75637694, "Rev_2016": 78699976, "Rev_2017": 84841133, "Rev_2018": 103092204, "Rev_2019": 110844907, "Rev_2020": 102223618, "Rev_2021": 74183342, "Rev_2022": 115139432, "Rev_2023": 124290313, "Rev_2024": 134863232}, "geometry": {"type": "Point", "coordinates": [-86.9212, 40.4237]}}, {"type": "Feature", "properties": {"Name": "Rutgers, The State University of New Jersey-New Brunswick", "Rev_2015": 70558935, "Rev_2016": 83974159, "Rev_2017": 96883027, "Rev_2018": 100745386, "Rev_2019": 103251280, "Rev_2020": 103642415, "Rev_2021": 87992302, "Rev_2022": 109601529, "Rev_2023": 125478340, "Rev_2024": 136755755}, "geometry": {"type": "Point", "coordinates": [-74.4474, 40.5008]}}, {"type": "Feature", "properties": {"Name": "The Ohio State University", "Rev_2015": 167166065, "Rev_2016": 170789765, "Rev_2017": 185409602, "Rev_2018": 205556663, "Rev_2019": 210548239, "Rev_2020": 233871740, "Rev_2021": 106896918, "Rev_2022": 251615345, "Rev_2023": 279549337, "Rev_2024": 254933664}, "geometry": {"type": "Point", "coordinates": [-83.0197, 40.003]}}, {"type": "Feature", "properties": {"Name": "University of California, Los Angeles", "Rev_2015": 96912767, "Rev_2016": 98913023, "Rev_2017": 104106646, "Rev_2018": 130960560, "Rev_2019": 108412967, "Rev_2020": 97674553, "Rev_2021": 47652914, "Rev_2022": 103061344, "Rev_2023": 105421505, "Rev_2024": 119045826}, "geometry": {"type": "Point", "coordinates": [-118.4452, 34.0689]}}, {"type": "Feature", "properties": {"Name": "University of Illinois Urbana-Champaign", "Rev_2015": 85998659, "Rev_2016": 96249500, "Rev_2017": 97447731, "Rev_2018": 115132186, "Rev_2019": 118565501, "Rev_2020": 122566259, "Rev_2021": 98811643, "Rev_2022": 145735330, "Rev_2023": 148345919, "Rev_2024": 174067436}, "geometry": {"type": "Point", "coordinates": [-88.2272, 40.102]}}, {"type": "Feature", "properties": {"Name": "University of Iowa", "Rev_2015": 105969545, "Rev_2016": 113249020, "Rev_2017": 130681467, "Rev_2018": 137093027, "Rev_2019": 151976026, "Rev_2020": 145636544, "Rev_2021": 74789832, "Rev_2022": 151483092, "Rev_2023": 167417806, "Rev_2024": 173213953}, "geometry": {"type": "Point", "coordinates": [-91.5302, 41.6611]}}, {"type": "Feature", "properties": {"Name": "University of Maryland, College Park", "Rev_2015": 92686128, "Rev_2016": 94101697, "Rev_2017": 94881357, "Rev_2018": 98294571, "Rev_2019": 108796303, "Rev_2020": 92286469, "Rev_2021": 60901167, "Rev_2022": 107526374, "Rev_2023": 121183392, "Rev_2024": 127768033}, "geometry": {"type": "Point", "coordinates": [-76.9426, 38.9869]}}, {"type": "Feature", "properties": {"Name": "University of Michigan", "Rev_2015": 152477026, "Rev_2016": 163850616, "Rev_2017": 185173187, "Rev_2018": 195769104, "Rev_2019": 197820410, "Rev_2020": 192403168, "Rev_2021": 101236069, "Rev_2022": 210652287, "Rev_2023": 229561279, "Rev_2024": 238866661}, "geometry": {"type": "Point", "coordinates": [-83.7382, 42.278]}}, {"type": "Feature", "properties": {"Name": "University of Minnesota, Twin Cities", "Rev_2015": 111162265, "Rev_2016": 113506279, "Rev_2017": 116376862, "Rev_2018": 124847642, "Rev_2019": 130456454, "Rev_2020": 119280297, "Rev_2021": 85512708, "Rev_2022": 135198272, "Rev_2023": 148707736, "Rev_2024": 151101497}, "geometry": {"type": "Point", "coordinates": [-93.2353, 44.9737]}}, {"type": "Feature", "properties": {"Name": "University of Nebraska-Lincoln", "Rev_2015": 102157399, "Rev_2016": 112142961, "Rev_2017": 120205090, "Rev_2018": 142223226, "Rev_2019": 136233460, "Rev_2020": 133629080, "Rev_2021": 92093093, "Rev_2022": 143423944, "Rev_2023": 204831356, "Rev_2024": 220165405}, "geometry": {"type": "Point", "coordinates": [-96.7, 40.82]}}, {"type": "Feature", "properties": {"Name": "University of Oregon", "Rev_2015": 105701523, "Rev_2016": 111701175, "Rev_2017": 145417315, "Rev_2018": 122541827, "Rev_2019": 127508498, "Rev_2020": 391769609, "Rev_2021": 117521817, "Rev_2022": 153510555, "Rev_2023": 150605799, "Rev_2024": 169206109}, "geometry": {"type": "Point", "coordinates": [-123.0721, 44.0456]}}, {"type": "Feature", "properties": {"Name": "University of Washington", "Rev_2015": 103540117, "Rev_2016": 107154560, "Rev_2017": 128745183, "Rev_2018": 130919331, "Rev_2019": 133792677, "Rev_2020": 137573939, "Rev_2021": 83431816, "Rev_2022": 145184864, "Rev_2023": 151599477, "Rev_2024": 190936516}, "geometry": {"type": "Point", "coordinates": [-122.3035, 47.6553]}}, {"type": "Feature", "properties": {"Name": "University of Wisconsin-Madison", "Rev_2015": 123895543, "Rev_2016": 132788726, "Rev_2017": 143420668, "Rev_2018": 151966795, "Rev_2019": 157660107, "Rev_2020": 148198907, "Rev_2021": 106916838, "Rev_2022": 150100977, "Rev_2023": 197723038, "Rev_2024": 190637312}, "geometry": {"type": "Point", "coordinates": [-89.4125, 43.0766]}}]}